[{"id": 2352778, "name": "Abuja", "country": "NG", "coord": {"lon": 7.48976, "lat": 9.05735}}, {"id": 3451138, "name": "Rio Grande", "country": "BR", "coord": {"lon": -52.09861, "lat": -32.035}}, {"id": 3941584, "name": "Cusco", "country": "PE", "coord": {"lon": -71.978058, "lat": -13.51833}}, {"id": 3451189, "name": "Estado do Rio de Janeiro", "country": "BR", "coord": {"lon": -42.5, "lat": -22}}, {"id": 188714, "name": "Luanda", "country": "KE", "coord": {"lon": 34.06459, "lat": 0.29668}}, {"id": 587084, "name": "Baku", "country": "AZ", "coord": {"lon": 49.89201, "lat": 40.37767}}, {"id": 1496153, "name": "Omsk", "country": "RU", "coord": {"lon": 73.400002, "lat": 55}}, {"id": 1311874, "name": "Mandalay", "country": "MM", "coord": {"lon": 96.083588, "lat": 21.97473}}, {"id": 2643743, "name": "London", "country": "GB", "coord": {"lon": -0.12574, "lat": 51.50853}}, {"id": 5128638, "name": "New York", "country": "US", "coord": {"lon": -75.499901, "lat": 43.000351}}, {"id": 1850147, "name": "Tokyo", "country": "JP", "coord": {"lon": 139.691711, "lat": 35.689499}}, {"id": 1275339, "name": "Mumbai", "country": "IN", "coord": {"lon": 72.847939, "lat": 19.01441}}, {"id": 2657896, "name": "Zurich", "country": "CH", "coord": {"lon": 8.55, "lat": 47.366669}}, {"id": 5368361, "name": "Los Angeles", "country": "US", "coord": {"lon": -118.243683, "lat": 34.052231}}, {"id": 3369157, "name": "Cape Town", "country": "ZA", "coord": {"lon": 18.42322, "lat": -33.925838}}, {"id": 360630, "name": "Cairo", "country": "EG", "coord": {"lon": 31.24967, "lat": 30.06263}}, {"id": 184745, "name": "Nairobi", "country": "KE", "coord": {"lon": 36.816669, "lat": -1.28333}}, {"id": 1796236, "name": "Shanghai", "country": "CN", "coord": {"lon": 121.458061, "lat": 31.222219}}, {"id": 1880251, "name": "Republic of Singapore", "country": "SG", "coord": {"lon": 103.800003, "lat": 1.36667}}, {"id": 2147714, "name": "Sydney", "country": "AU", "coord": {"lon": 151.207321, "lat": -33.867851}}]